[
  {
    "name": "Admin Block",
    "latitude": 15.42259,
    "longitude": 73.9802,
    "floor": 2,
    "capacity": 100,
    "type": "Offices",
    "description": " "
  },
  {
    "name": "Mahalaxmi Bungalow",
    "latitude": 15.42217,
    "longitude": 73.97907,
    "floor": 2,
    "capacity": 100,
    "type": "Offices",
    "description": " "
  },
  {
    "name": "Academic Block A (Systems Lab, Faculty Cabins)",
    "latitude": 15.42258,
    "longitude": 73.97871,
    "floor": 2,
    "capacity": 100,
    "type": "Labs",
    "description": " "
  },
  {
    "name": "Academic Block B (CL2, CL3, Physics Lab, Faculty Cabins)",
    "latitude": 15.42258,
    "longitude": 73.97843,
    "floor": 2,
    "capacity": 100,
    "type": "Classrooms",
    "description": " "
  },
  {
    "name": "Mining Building, GEC (LH1, T1-T3)",
    "latitude": 15.42501,
    "longitude": 73.97849,
    "floor": 2,
    "capacity": 100,
    "type": "Classrooms",
    "description": " "
  },
  {
    "name": "Central Library, IIT Goa",
    "latitude": 15.42182,
    "longitude": 73.97846,
    "floor": 2,
    "capacity": 100,
    "type": "Library",
    "description": " "
  },
  {
    "name": "Mechanical Workshop, GEC",
    "latitude": 15.42297,
    "longitude": 73.97861,
    "type": "Workshop",
    "description": " "
  },
  {
    "name": "Hostel Block B1",
    "latitude": 15.42246,
    "longitude": 73.98236,
    "floor": 2,
    "capacity": 100,
    "type": "Hostel",
    "description": " "
  },
  {
    "name": "Hostel Block B2",
    "latitude": 15.42223,
    "longitude": 73.98273,
    "floor": 2,
    "capacity": 100,
    "type": "Hostel",
    "description": " "
  },
  {
    "name": "Hostel Block B3",
    "latitude": 15.42247,
    "longitude": 73.9829,
    "floor": 2,
    "capacity": 100,
    "type": "Hostel",
    "description": " "
  },
  {
    "name": "Hostel Block G1",
    "latitude": 15.42291,
    "longitude": 73.98317,
    "floor": 2,
    "capacity": 100,
    "type": "Hostel",
    "description": " "
  },
  {
    "name": "Mess Hall, IIT Goa",
    "latitude": 15.42298,
    "longitude": 73.98259,
    "floor": 2,
    "capacity": 100,
    "type": "Dining",
    "description": " "
  },
  {
    "name": "Infinity Ground",
    "latitude": 15.42617,
    "longitude": 73.9802,
    "floor": 2,
    "capacity": 100,
    "type": "Recreation",
    "description": " "
  },
  {
    "name": "Happenings Ground",
    "latitude": 15.42307,
    "longitude": 73.98008,
    "floor": 2,
    "capacity": 100,
    "type": "Recreation",
    "description": " "
  },
  {
    "name": "Gymkhana, GEC",
    "latitude": 15.4255,
    "longitude": 73.9804,
    "floor": 2,
    "capacity": 100,
    "type": "Recreation",
    "description": " "
  },
  {
    "name": "Gym, IIT Goa",
    "latitude": 15.42227,
    "longitude": 73.98271,
    "floor": 2,
    "capacity": 100,
    "type": "Recreation",
    "description": " "
  },
  {
    "name": "Medical Centre, IIT Goa",
    "latitude": 15.41948,
    "longitude": 73.98064,
    "floor": 2,
    "capacity": 100,
    "type": "Wellness",
    "description": " "
  },
  {
    "name": "Library Hall, GEC",
    "latitude": 15.42286,
    "longitude": 73.98099,
    "floor": 2,
    "capacity": 100,
    "type": "Library",
    "description": " "
  },
  {
    "name": "Hanuman Temple",
    "latitude": 15.42071,
    "longitude": 73.98152,
    "floor": 2,
    "capacity": 100,
    "type": "Temple",
    "description": " "
  },
  {
    "name": "Security Post",
    "latitude": 15.42295,
    "longitude": 73.98213,
    "floor": 2,
    "capacity": 100,
    "type": "Security Office",
    "description": " "
  },
  {
    "name": "Mechanical Workshop, GEC",
    "latitude": 15.42299,
    "longitude": 73.97858,
    "floor": 2,
    "capacity": 100,
    "type": "Workshop",
    "description": " "
  },
  {
    "name": "Canteen, GEC",
    "latitude": 15.42265,
    "longitude": 73.97924,
    "floor": 2,
    "capacity": 100,
    "type": "Canteen",
    "description": " "
  },
  {
    "name": "Mining Building Parking",
    "latitude": 15.42511,
    "longitude": 73.97919,
    "floor": 2,
    "capacity": 100,
    "type": "Parking",
    "description": " "
  },
  {
    "name": "Academic Block Parking",
    "latitude": 15.42244,
    "longitude": 73.97853,
    "floor": 2,
    "capacity": 100,
    "type": "Parking",
    "description": " "
  },
  {
    "name": "IT Building Parking",
    "latitude": 15.42535,
    "longitude": 73.97956,
    "floor": 2,
    "capacity": 100,
    "type": "Parking",
    "description": " "
  },
  {
    "name": "Mahalakshmi Bunglow Parking",
    "latitude": 15.4223,
    "longitude": 73.97906,
    "floor": 2,
    "capacity": 100,
    "type": "Parking",
    "description": " "
  }
]